[
    {
        "city": "Malishevë, Kosovo",
        "coordinate": {
            "longitude": "20.7458",
            "latitude": "42.4822"
        }
    },
    {
        "city": "Prizren, Kosovo",
        "coordinate": {
            "longitude": "20.7397",
            "latitude": "42.2139"
        }
    },
    {
        "city": "Zubin Potok, Kosovo",
        "coordinate": {
            "longitude": "20.6897",
            "latitude": "42.9144"
        }
    },
    {
        "city": "Kamenicë, Kosovo",
        "coordinate": {
            "longitude": "21.5803",
            "latitude": "42.5781"
        }
    },
    {
        "city": "Viti, Kosovo",
        "coordinate": {
            "longitude": "21.3583",
            "latitude": "42.3214"
        }
    },
    {
        "city": "Shtërpcë, Kosovo",
        "coordinate": {
            "longitude": "21.0272",
            "latitude": "42.2394"
        }
    },
    {
        "city": "Shtime, Kosovo",
        "coordinate": {
            "longitude": "21.0397",
            "latitude": "42.4331"
        }
    },
    {
        "city": "Vushtrri, Kosovo",
        "coordinate": {
            "longitude": "20.9675",
            "latitude": "42.8231"
        }
    },
    {
        "city": "Dragash, Kosovo",
        "coordinate": {
            "longitude": "20.6533",
            "latitude": "42.0265"
        }
    },
    {
        "city": "Podujevë, Kosovo",
        "coordinate": {
            "longitude": "21.1899",
            "latitude": "42.9111"
        }
    },
    {
        "city": "Fushë Kosovë, Kosovo",
        "coordinate": {
            "longitude": "21.0961",
            "latitude": "42.6639"
        }
    },
    {
        "city": "Kaçanik, Kosovo",
        "coordinate": {
            "longitude": "21.2594",
            "latitude": "42.2319"
        }
    },
    {
        "city": "Klinë, Kosovo",
        "coordinate": {
            "longitude": "20.5778",
            "latitude": "42.6217"
        }
    },
    {
        "city": "Leposaviq, Kosovo",
        "coordinate": {
            "longitude": "20.8028",
            "latitude": "43.1039"
        }
    },
    {
        "city": "Pejë, Kosovo",
        "coordinate": {
            "longitude": "20.2922",
            "latitude": "42.6600"
        }
    },
    {
        "city": "Rahovec, Kosovo",
        "coordinate": {
            "longitude": "20.6547",
            "latitude": "42.3994"
        }
    },
    {
        "city": "Gjilan, Kosovo",
        "coordinate": {
            "longitude": "21.4633",
            "latitude": "42.4689"
        }
    },
    {
        "city": "Lipjan, Kosovo",
        "coordinate": {
            "longitude": "21.1258",
            "latitude": "42.5217"
        }
    },
    {
        "city": "Obiliq, Kosovo",
        "coordinate": {
            "longitude": "21.0703",
            "latitude": "42.6869"
        }
    },
    {
        "city": "Gjakovë, Kosovo",
        "coordinate": {
            "longitude": "20.4308",
            "latitude": "42.3803"
        }
    },
    {
        "city": "Pristina, Kosovo",
        "coordinate": {
            "longitude": "21.1724",
            "latitude": "42.6666"
        }
    },
    {
        "city": "Deçan, Kosovo",
        "coordinate": {
            "longitude": "20.2911",
            "latitude": "42.5378"
        }
    },
    {
        "city": "Istog, Kosovo",
        "coordinate": {
            "longitude": "20.4875",
            "latitude": "42.7808"
        }
    },
    {
        "city": "Hani i Elezit, Kosovo",
        "coordinate": {
            "longitude": "21.2967",
            "latitude": "42.1500"
        }
    },
    {
        "city": "Junik, Kosovo",
        "coordinate": {
            "longitude": "20.2772",
            "latitude": "42.4758"
        }
    },
    {
        "city": "Kllokot, Kosovo",
        "coordinate": {
            "longitude": "21.3744",
            "latitude": "42.3714"
        }
    },
    {
        "city": "Mamushë, Kosovo",
        "coordinate": {
            "longitude": "20.7269",
            "latitude": "42.3308"
        }
    },
    {
        "city": "Partesh, Kosovo",
        "coordinate": {
            "longitude": "21.4336",
            "latitude": "42.4019"
        }
    },
    {
        "city": "Ranillug, Kosovo",
        "coordinate": {
            "longitude": "21.5989",
            "latitude": "42.4922"
        }
    },
    {
        "city": "Ferizaj, Kosovo",
        "coordinate": {
            "longitude": "21.1553",
            "latitude": "42.3706"
        }
    },
    {
        "city": "Zveçan, Kosovo",
        "coordinate": {
            "longitude": "20.8403",
            "latitude": "42.9075"
        }
    },
    {
        "city": "Suharekë, Kosovo",
        "coordinate": {
            "longitude": "20.8250",
            "latitude": "42.3586"
        }
    },
    {
        "city": "Gllogovc, Kosovo",
        "coordinate": {
            "longitude": "20.8939",
            "latitude": "42.6283"
        }
    },
    {
        "city": "Mitrovicë, Kosovo",
        "coordinate": {
            "longitude": "20.8667",
            "latitude": "42.8833"
        }
    },
    {
        "city": "Skenderaj, Kosovo",
        "coordinate": {
            "longitude": "20.7886",
            "latitude": "42.7467"
        }
    },
    {
        "city": "Novobërdë, Kosovo",
        "coordinate": {
            "longitude": "21.4197",
            "latitude": "42.6178"
        }
    },
    {
        "city": "Graçanicë, Kosovo",
        "coordinate": {
            "longitude": "21.1958",
            "latitude": "42.6011"
        }
    },
    {
        "city": "Longyearbyen, Svalbard",
        "coordinate": {
            "longitude": "15.6333",
            "latitude": "78.2167"
        }
    },
    {
        "city": "Sanaa, Yemen",
        "coordinate": {
            "longitude": "44.2066",
            "latitude": "15.3547"
        }
    },
    {
        "city": "Marib, Yemen",
        "coordinate": {
            "longitude": "45.3340",
            "latitude": "15.4210"
        }
    },
    {
        "city": "Al Jabīn, Yemen",
        "coordinate": {
            "longitude": "43.5990",
            "latitude": "14.7040"
        }
    },
    {
        "city": "Hajjah, Yemen",
        "coordinate": {
            "longitude": "43.6021",
            "latitude": "15.6917"
        }
    },
    {
        "city": "Ibb, Yemen",
        "coordinate": {
            "longitude": "44.1709",
            "latitude": "13.9759"
        }
    },
    {
        "city": "Al Hudaydah, Yemen",
        "coordinate": {
            "longitude": "42.9530",
            "latitude": "14.7979"
        }
    },
    {
        "city": "Lahij, Yemen",
        "coordinate": {
            "longitude": "44.8838",
            "latitude": "13.0582"
        }
    },
    {
        "city": "Al Maḩwīt, Yemen",
        "coordinate": {
            "longitude": "43.5448",
            "latitude": "15.4701"
        }
    },
    {
        "city": "Taizz, Yemen",
        "coordinate": {
            "longitude": "44.0394",
            "latitude": "13.6045"
        }
    },
    {
        "city": "Sadah, Yemen",
        "coordinate": {
            "longitude": "43.8498",
            "latitude": "16.9398"
        }
    },
    {
        "city": "Dhamar, Yemen",
        "coordinate": {
            "longitude": "44.3875",
            "latitude": "14.5575"
        }
    },
    {
        "city": "‘Amrān, Yemen",
        "coordinate": {
            "longitude": "43.9439",
            "latitude": "15.6594"
        }
    },
    {
        "city": "Aḑ Ḑāli‘, Yemen",
        "coordinate": {
            "longitude": "44.7314",
            "latitude": "13.6957"
        }
    },
    {
        "city": "Saywun, Yemen",
        "coordinate": {
            "longitude": "48.7873",
            "latitude": "15.9430"
        }
    },
    {
        "city": "Al Bayda, Yemen",
        "coordinate": {
            "longitude": "45.5740",
            "latitude": "13.9790"
        }
    },
    {
        "city": "Zinjibār, Yemen",
        "coordinate": {
            "longitude": "45.3807",
            "latitude": "13.1287"
        }
    },
    {
        "city": "Rida, Yemen",
        "coordinate": {
            "longitude": "44.8341",
            "latitude": "14.4295"
        }
    },
    {
        "city": "'Ataq, Yemen",
        "coordinate": {
            "longitude": "46.8000",
            "latitude": "14.5500"
        }
    },
    {
        "city": "Al Ghaydah, Yemen",
        "coordinate": {
            "longitude": "52.1638",
            "latitude": "16.2394"
        }
    },
    {
        "city": "Sayhut, Yemen",
        "coordinate": {
            "longitude": "51.2454",
            "latitude": "15.2105"
        }
    },
    {
        "city": "Al Mukalla, Yemen",
        "coordinate": {
            "longitude": "49.1259",
            "latitude": "14.5412"
        }
    },
    {
        "city": "Al Ḩazm, Yemen",
        "coordinate": {
            "longitude": "44.7769",
            "latitude": "16.1641"
        }
    },
    {
        "city": "Zabīd, Yemen",
        "coordinate": {
            "longitude": "43.3155",
            "latitude": "14.1951"
        }
    },
    {
        "city": "Aden, Yemen",
        "coordinate": {
            "longitude": "45.0095",
            "latitude": "12.7797"
        }
    },
    {
        "city": "Hadiboh, Yemen",
        "coordinate": {
            "longitude": "54.0239",
            "latitude": "12.6519"
        }
    },
    {
        "city": "Ash Shihr, Yemen",
        "coordinate": {
            "longitude": "49.6092",
            "latitude": "14.7593"
        }
    },
    {
        "city": "Dzaoudzi, Mayotte",
        "coordinate": {
            "longitude": "45.2750",
            "latitude": "-12.7871"
        }
    },
    {
        "city": "Pretoria, South Africa",
        "coordinate": {
            "longitude": "28.2294",
            "latitude": "-25.7069"
        }
    },
    {
        "city": "Lebowakgomo, South Africa",
        "coordinate": {
            "longitude": "29.5000",
            "latitude": "-24.1996"
        }
    },
    {
        "city": "Potchefstroom, South Africa",
        "coordinate": {
            "longitude": "27.1000",
            "latitude": "-26.6996"
        }
    },
    {
        "city": "Graaff Reinet, South Africa",
        "coordinate": {
            "longitude": "24.5400",
            "latitude": "-32.3000"
        }
    },
    {
        "city": "Rustenburg, South Africa",
        "coordinate": {
            "longitude": "27.2400",
            "latitude": "-25.6500"
        }
    },
    {
        "city": "Brandfort, South Africa",
        "coordinate": {
            "longitude": "26.4700",
            "latitude": "-28.6996"
        }
    },
    {
        "city": "Vryheid, South Africa",
        "coordinate": {
            "longitude": "30.7900",
            "latitude": "-27.7600"
        }
    },
    {
        "city": "Vereeniging, South Africa",
        "coordinate": {
            "longitude": "27.9600",
            "latitude": "-26.6496"
        }
    },
    {
        "city": "Brits, South Africa",
        "coordinate": {
            "longitude": "27.7800",
            "latitude": "-25.6296"
        }
    },
    {
        "city": "Bethlehem, South Africa",
        "coordinate": {
            "longitude": "28.3000",
            "latitude": "-28.2196"
        }
    },
    {
        "city": "Ubomba, South Africa",
        "coordinate": {
            "longitude": "32.0833",
            "latitude": "-27.5661"
        }
    },
    {
        "city": "Polokwane, South Africa",
        "coordinate": {
            "longitude": "29.4500",
            "latitude": "-23.8900"
        }
    },
    {
        "city": "Springbok, South Africa",
        "coordinate": {
            "longitude": "17.8833",
            "latitude": "-29.6667"
        }
    },
    {
        "city": "Thohoyandou, South Africa",
        "coordinate": {
            "longitude": "30.4800",
            "latitude": "-22.9500"
        }
    },
    {
        "city": "Pietermaritzburg, South Africa",
        "coordinate": {
            "longitude": "30.3900",
            "latitude": "-29.6100"
        }
    },
    {
        "city": "Poffader, South Africa",
        "coordinate": {
            "longitude": "19.3834",
            "latitude": "-29.1329"
        }
    },
    {
        "city": "Carnarvon, South Africa",
        "coordinate": {
            "longitude": "22.1333",
            "latitude": "-30.9496"
        }
    },
    {
        "city": "Kroonstad, South Africa",
        "coordinate": {
            "longitude": "27.2100",
            "latitude": "-27.6600"
        }
    },
    {
        "city": "Alexander Bay, South Africa",
        "coordinate": {
            "longitude": "16.5033",
            "latitude": "-28.6083"
        }
    },
    {
        "city": "Bloemhof, South Africa",
        "coordinate": {
            "longitude": "25.5900",
            "latitude": "-27.6496"
        }
    },
    {
        "city": "Hermanus, South Africa",
        "coordinate": {
            "longitude": "19.2299",
            "latitude": "-34.4096"
        }
    },
    {
        "city": "Bethal, South Africa",
        "coordinate": {
            "longitude": "29.4500",
            "latitude": "-26.4696"
        }
    },
    {
        "city": "Upington, South Africa",
        "coordinate": {
            "longitude": "21.2300",
            "latitude": "-28.4600"
        }
    },
    {
        "city": "Tzaneen, South Africa",
        "coordinate": {
            "longitude": "30.1700",
            "latitude": "-23.8195"
        }
    },
    {
        "city": "Vanhynsdorp, South Africa",
        "coordinate": {
            "longitude": "18.7333",
            "latitude": "-31.6166"
        }
    },
    {
        "city": "Musina, South Africa",
        "coordinate": {
            "longitude": "30.0300",
            "latitude": "-22.3400"
        }
    },
    {
        "city": "Kimberley, South Africa",
        "coordinate": {
            "longitude": "24.7700",
            "latitude": "-28.7468"
        }
    },
    {
        "city": "Durban, South Africa",
        "coordinate": {
            "longitude": "30.9800",
            "latitude": "-29.8650"
        }
    },
    {
        "city": "Klerksdorp, South Africa",
        "coordinate": {
            "longitude": "26.6200",
            "latitude": "-26.8800"
        }
    },
    {
        "city": "Welkom, South Africa",
        "coordinate": {
            "longitude": "26.7300",
            "latitude": "-27.9700"
        }
    },
    {
        "city": "De Aar, South Africa",
        "coordinate": {
            "longitude": "24.0000",
            "latitude": "-30.6500"
        }
    },
    {
        "city": "Prieska, South Africa",
        "coordinate": {
            "longitude": "22.7300",
            "latitude": "-29.6595"
        }
    },
    {
        "city": "Saldanha, South Africa",
        "coordinate": {
            "longitude": "17.9300",
            "latitude": "-33.0100"
        }
    },
    {
        "city": "Middelburg, South Africa",
        "coordinate": {
            "longitude": "25.0100",
            "latitude": "-31.5000"
        }
    },
    {
        "city": "Port St. Johns, South Africa",
        "coordinate": {
            "longitude": "29.5283",
            "latitude": "-31.6279"
        }
    },
    {
        "city": "Volksrust, South Africa",
        "coordinate": {
            "longitude": "29.8900",
            "latitude": "-27.3596"
        }
    },
    {
        "city": "Ulundi, South Africa",
        "coordinate": {
            "longitude": "31.4100",
            "latitude": "-28.3296"
        }
    },
    {
        "city": "Beaufort West, South Africa",
        "coordinate": {
            "longitude": "22.5700",
            "latitude": "-32.3496"
        }
    },
    {
        "city": "Komatipoort, South Africa",
        "coordinate": {
            "longitude": "31.9400",
            "latitude": "-25.4096"
        }
    },
    {
        "city": "Nelspruit, South Africa",
        "coordinate": {
            "longitude": "30.9703",
            "latitude": "-25.4745"
        }
    },
    {
        "city": "Standerton, South Africa",
        "coordinate": {
            "longitude": "29.2400",
            "latitude": "-26.9395"
        }
    },
    {
        "city": "Johannesburg, South Africa",
        "coordinate": {
            "longitude": "28.0300",
            "latitude": "-26.1700"
        }
    },
    {
        "city": "Kuruman, South Africa",
        "coordinate": {
            "longitude": "23.4200",
            "latitude": "-27.4496"
        }
    },
    {
        "city": "Paarl, South Africa",
        "coordinate": {
            "longitude": "18.9600",
            "latitude": "-33.6996"
        }
    },
    {
        "city": "Worcester, South Africa",
        "coordinate": {
            "longitude": "19.4399",
            "latitude": "-33.6400"
        }
    },
    {
        "city": "Colesberg, South Africa",
        "coordinate": {
            "longitude": "25.1000",
            "latitude": "-30.7195"
        }
    },
    {
        "city": "Umtata, South Africa",
        "coordinate": {
            "longitude": "28.7900",
            "latitude": "-31.5800"
        }
    },
    {
        "city": "Aliwal North, South Africa",
        "coordinate": {
            "longitude": "26.7100",
            "latitude": "-30.6896"
        }
    },
    {
        "city": "Middelburg, South Africa",
        "coordinate": {
            "longitude": "29.4700",
            "latitude": "-25.7596"
        }
    },
    {
        "city": "Springs, South Africa",
        "coordinate": {
            "longitude": "28.4300",
            "latitude": "-26.2696"
        }
    },
    {
        "city": "Benoni, South Africa",
        "coordinate": {
            "longitude": "28.3299",
            "latitude": "-26.1496"
        }
    },
    {
        "city": "Port Shepstone, South Africa",
        "coordinate": {
            "longitude": "30.4600",
            "latitude": "-30.7195"
        }
    },
    {
        "city": "Oudtshoorn, South Africa",
        "coordinate": {
            "longitude": "22.1900",
            "latitude": "-33.5800"
        }
    },
    {
        "city": "Port Elizabeth, South Africa",
        "coordinate": {
            "longitude": "25.6000",
            "latitude": "-33.9700"
        }
    },
    {
        "city": "Port Alfred, South Africa",
        "coordinate": {
            "longitude": "26.8800",
            "latitude": "-33.5995"
        }
    },
    {
        "city": "East London, South Africa",
        "coordinate": {
            "longitude": "27.8700",
            "latitude": "-32.9700"
        }
    },
    {
        "city": "Mossel Bay, South Africa",
        "coordinate": {
            "longitude": "22.1300",
            "latitude": "-34.1700"
        }
    },
    {
        "city": "Vryburg, South Africa",
        "coordinate": {
            "longitude": "24.7300",
            "latitude": "-26.9600"
        }
    },
    {
        "city": "Uitenhage, South Africa",
        "coordinate": {
            "longitude": "25.3900",
            "latitude": "-33.7596"
        }
    },
    {
        "city": "Bhisho, South Africa",
        "coordinate": {
            "longitude": "27.3900",
            "latitude": "-32.8700"
        }
    },
    {
        "city": "Knysna, South Africa",
        "coordinate": {
            "longitude": "23.0333",
            "latitude": "-34.0329"
        }
    },
    {
        "city": "Queenstown, South Africa",
        "coordinate": {
            "longitude": "26.8800",
            "latitude": "-31.8996"
        }
    },
    {
        "city": "Cradock, South Africa",
        "coordinate": {
            "longitude": "25.6100",
            "latitude": "-32.1995"
        }
    },
    {
        "city": "Bredasdorp, South Africa",
        "coordinate": {
            "longitude": "20.0300",
            "latitude": "-34.5295"
        }
    },
    {
        "city": "Swellendam, South Africa",
        "coordinate": {
            "longitude": "20.4300",
            "latitude": "-34.0196"
        }
    },
    {
        "city": "Ladysmith, South Africa",
        "coordinate": {
            "longitude": "29.7800",
            "latitude": "-28.5495"
        }
    },
    {
        "city": "George, South Africa",
        "coordinate": {
            "longitude": "22.4500",
            "latitude": "-33.9500"
        }
    },
    {
        "city": "Grahamstown, South Africa",
        "coordinate": {
            "longitude": "26.5200",
            "latitude": "-33.2996"
        }
    },
    {
        "city": "Mmabatho, South Africa",
        "coordinate": {
            "longitude": "25.6100",
            "latitude": "-25.8300"
        }
    },
    {
        "city": "Mahikeng, South Africa",
        "coordinate": {
            "longitude": "25.6442",
            "latitude": "-25.8652"
        }
    },
    {
        "city": "Bloemfontein, South Africa",
        "coordinate": {
            "longitude": "26.2299",
            "latitude": "-29.1200"
        }
    },
    {
        "city": "Cape Town, South Africa",
        "coordinate": {
            "longitude": "18.4350",
            "latitude": "-33.9200"
        }
    },
    {
        "city": "Zambezi, Zambia",
        "coordinate": {
            "longitude": "23.1099",
            "latitude": "-13.5400"
        }
    },
    {
        "city": "Solwezi, Zambia",
        "coordinate": {
            "longitude": "26.4000",
            "latitude": "-12.1796"
        }
    },
    {
        "city": "Lusaka, Zambia",
        "coordinate": {
            "longitude": "28.2833",
            "latitude": "-15.4166"
        }
    },
    {
        "city": "Kaoma, Zambia",
        "coordinate": {
            "longitude": "24.8000",
            "latitude": "-14.7796"
        }
    },
    {
        "city": "Chipata, Zambia",
        "coordinate": {
            "longitude": "32.6400",
            "latitude": "-13.6296"
        }
    },
    {
        "city": "Senanga, Zambia",
        "coordinate": {
            "longitude": "23.2700",
            "latitude": "-16.1196"
        }
    },
    {
        "city": "Sesheke, Zambia",
        "coordinate": {
            "longitude": "24.3000",
            "latitude": "-17.4695"
        }
    },
    {
        "city": "Chililabombwe, Zambia",
        "coordinate": {
            "longitude": "27.8200",
            "latitude": "-12.3696"
        }
    },
    {
        "city": "Chingola, Zambia",
        "coordinate": {
            "longitude": "27.8500",
            "latitude": "-12.5396"
        }
    },
    {
        "city": "Kasempa, Zambia",
        "coordinate": {
            "longitude": "25.8200",
            "latitude": "-13.4596"
        }
    },
    {
        "city": "Kitwe, Zambia",
        "coordinate": {
            "longitude": "28.2200",
            "latitude": "-12.8100"
        }
    },
    {
        "city": "Mufulira, Zambia",
        "coordinate": {
            "longitude": "28.2600",
            "latitude": "-12.5500"
        }
    },
    {
        "city": "Nchelenge, Zambia",
        "coordinate": {
            "longitude": "28.7300",
            "latitude": "-9.3496"
        }
    },
    {
        "city": "Mazabuka, Zambia",
        "coordinate": {
            "longitude": "27.7600",
            "latitude": "-15.8600"
        }
    },
    {
        "city": "Lukulu, Zambia",
        "coordinate": {
            "longitude": "23.2400",
            "latitude": "-14.3896"
        }
    },
    {
        "city": "Kafue, Zambia",
        "coordinate": {
            "longitude": "28.1800",
            "latitude": "-15.7800"
        }
    },
    {
        "city": "Lundazi, Zambia",
        "coordinate": {
            "longitude": "33.1700",
            "latitude": "-12.2895"
        }
    },
    {
        "city": "Mansa, Zambia",
        "coordinate": {
            "longitude": "28.8900",
            "latitude": "-11.2000"
        }
    },
    {
        "city": "Mwinilunga, Zambia",
        "coordinate": {
            "longitude": "24.4400",
            "latitude": "-11.7396"
        }
    },
    {
        "city": "Mumbwa, Zambia",
        "coordinate": {
            "longitude": "27.0700",
            "latitude": "-14.9796"
        }
    },
    {
        "city": "Kalabo, Zambia",
        "coordinate": {
            "longitude": "22.6800",
            "latitude": "-14.9896"
        }
    },
    {
        "city": "Nyimba, Zambia",
        "coordinate": {
            "longitude": "30.8100",
            "latitude": "-14.5495"
        }
    },
    {
        "city": "Kapiri Mposhi, Zambia",
        "coordinate": {
            "longitude": "28.6600",
            "latitude": "-13.9696"
        }
    },
    {
        "city": "Kabwe, Zambia",
        "coordinate": {
            "longitude": "28.4500",
            "latitude": "-14.4400"
        }
    },
    {
        "city": "Ndola, Zambia",
        "coordinate": {
            "longitude": "28.6500",
            "latitude": "-12.9999"
        }
    },
    {
        "city": "Kasama, Zambia",
        "coordinate": {
            "longitude": "31.1799",
            "latitude": "-10.1996"
        }
    },
    {
        "city": "Mbala, Zambia",
        "coordinate": {
            "longitude": "31.3700",
            "latitude": "-8.8400"
        }
    },
    {
        "city": "Kawambwa, Zambia",
        "coordinate": {
            "longitude": "29.0800",
            "latitude": "-9.7795"
        }
    },
    {
        "city": "Luanshya, Zambia",
        "coordinate": {
            "longitude": "28.4000",
            "latitude": "-13.1333"
        }
    },
    {
        "city": "Mongu, Zambia",
        "coordinate": {
            "longitude": "23.1200",
            "latitude": "-15.2796"
        }
    },
    {
        "city": "Mpika, Zambia",
        "coordinate": {
            "longitude": "31.4600",
            "latitude": "-11.8300"
        }
    },
    {
        "city": "Chinsali, Zambia",
        "coordinate": {
            "longitude": "32.0600",
            "latitude": "-10.5496"
        }
    },
    {
        "city": "Livingstone, Zambia",
        "coordinate": {
            "longitude": "25.8600",
            "latitude": "-17.8600"
        }
    },
    {
        "city": "Choma, Zambia",
        "coordinate": {
            "longitude": "26.9700",
            "latitude": "-16.8095"
        }
    },
    {
        "city": "Plumtree, Zimbabwe",
        "coordinate": {
            "longitude": "27.8200",
            "latitude": "-20.4795"
        }
    },
    {
        "city": "Kariba, Zimbabwe",
        "coordinate": {
            "longitude": "28.8000",
            "latitude": "-16.5296"
        }
    },
    {
        "city": "Hwange, Zimbabwe",
        "coordinate": {
            "longitude": "26.5000",
            "latitude": "-18.3700"
        }
    },
    {
        "city": "Chiredzi, Zimbabwe",
        "coordinate": {
            "longitude": "31.6600",
            "latitude": "-21.0496"
        }
    },
    {
        "city": "Mazowe, Zimbabwe",
        "coordinate": {
            "longitude": "30.9700",
            "latitude": "-17.5196"
        }
    },
    {
        "city": "Zvishavane, Zimbabwe",
        "coordinate": {
            "longitude": "30.0500",
            "latitude": "-20.3296"
        }
    },
    {
        "city": "Shamva, Zimbabwe",
        "coordinate": {
            "longitude": "31.5700",
            "latitude": "-17.3196"
        }
    },
    {
        "city": "Harare, Zimbabwe",
        "coordinate": {
            "longitude": "31.0447",
            "latitude": "-17.8178"
        }
    },
    {
        "city": "Kwekwe, Zimbabwe",
        "coordinate": {
            "longitude": "29.8000",
            "latitude": "-18.9296"
        }
    },
    {
        "city": "Kadoma, Zimbabwe",
        "coordinate": {
            "longitude": "29.9099",
            "latitude": "-18.3300"
        }
    },
    {
        "city": "Gwanda, Zimbabwe",
        "coordinate": {
            "longitude": "29.0100",
            "latitude": "-20.9396"
        }
    },
    {
        "city": "Chinhoyi, Zimbabwe",
        "coordinate": {
            "longitude": "30.1800",
            "latitude": "-17.3596"
        }
    },
    {
        "city": "Beitbridge, Zimbabwe",
        "coordinate": {
            "longitude": "29.9900",
            "latitude": "-22.2096"
        }
    },
    {
        "city": "Mutare, Zimbabwe",
        "coordinate": {
            "longitude": "32.6500",
            "latitude": "-18.9700"
        }
    },
    {
        "city": "Gweru, Zimbabwe",
        "coordinate": {
            "longitude": "29.8200",
            "latitude": "-19.4500"
        }
    },
    {
        "city": "Karoi, Zimbabwe",
        "coordinate": {
            "longitude": "29.6800",
            "latitude": "-16.8196"
        }
    },
    {
        "city": "Masvingo, Zimbabwe",
        "coordinate": {
            "longitude": "30.8200",
            "latitude": "-20.0596"
        }
    },
    {
        "city": "Bulawayo, Zimbabwe",
        "coordinate": {
            "longitude": "28.5800",
            "latitude": "-20.1700"
        }
    },
    {
        "city": "Victoria Falls, Zimbabwe",
        "coordinate": {
            "longitude": "25.8400",
            "latitude": "-17.9296"
        }
    },
    {
        "city": "Chitungwiza, Zimbabwe",
        "coordinate": {
            "longitude": "31.1000",
            "latitude": "-18.0000"
        }
    },
    {
        "city": "Maqat, Kazakhstan",
        "coordinate": {
            "longitude": "53.3265",
            "latitude": "47.6482"
        }
    },
    {
        "city": "Zhangaozen, Kazakhstan",
        "coordinate": {
            "longitude": "52.8000",
            "latitude": "43.3004"
        }
    },
    {
        "city": "Taraz, Kazakhstan",
        "coordinate": {
            "longitude": "71.3650",
            "latitude": "42.9000"
        }
    },
    {
        "city": "Shymkent, Kazakhstan",
        "coordinate": {
            "longitude": "69.5950",
            "latitude": "42.3200"
        }
    },
    {
        "city": "Oral, Kazakhstan",
        "coordinate": {
            "longitude": "51.3350",
            "latitude": "51.2711"
        }
    },
    {
        "city": "Balqash, Kazakhstan",
        "coordinate": {
            "longitude": "74.9502",
            "latitude": "46.8532"
        }
    },
    {
        "city": "Zaysan, Kazakhstan",
        "coordinate": {
            "longitude": "84.8598",
            "latitude": "47.4752"
        }
    },
    {
        "city": "Oytal, Kazakhstan",
        "coordinate": {
            "longitude": "73.2549",
            "latitude": "42.9153"
        }
    },
    {
        "city": "Zholymbet, Kazakhstan",
        "coordinate": {
            "longitude": "71.7099",
            "latitude": "51.7502"
        }
    },
    {
        "city": "Serebryansk, Kazakhstan",
        "coordinate": {
            "longitude": "83.4249",
            "latitude": "49.6999"
        }
    },
    {
        "city": "Chapaev, Kazakhstan",
        "coordinate": {
            "longitude": "51.1449",
            "latitude": "50.1915"
        }
    },
    {
        "city": "Ridder, Kazakhstan",
        "coordinate": {
            "longitude": "83.5149",
            "latitude": "50.3554"
        }
    },
    {
        "city": "Zhaltyr, Kazakhstan",
        "coordinate": {
            "longitude": "69.8328",
            "latitude": "51.6324"
        }
    },
    {
        "city": "Atbasar, Kazakhstan",
        "coordinate": {
            "longitude": "68.3477",
            "latitude": "51.8219"
        }
    },
    {
        "city": "Aqsay, Kazakhstan",
        "coordinate": {
            "longitude": "53.0349",
            "latitude": "51.1714"
        }
    },
    {
        "city": "Shemonaikha, Kazakhstan",
        "coordinate": {
            "longitude": "81.9050",
            "latitude": "50.6316"
        }
    },
    {
        "city": "Atasu, Kazakhstan",
        "coordinate": {
            "longitude": "71.6499",
            "latitude": "48.6903"
        }
    },
    {
        "city": "Rudny, Kazakhstan",
        "coordinate": {
            "longitude": "63.1300",
            "latitude": "52.9527"
        }
    },
    {
        "city": "Makhambet, Kazakhstan",
        "coordinate": {
            "longitude": "51.5798",
            "latitude": "47.6714"
        }
    },
    {
        "city": "Fort Shevchenko, Kazakhstan",
        "coordinate": {
            "longitude": "50.2666",
            "latitude": "44.5171"
        }
    },
    {
        "city": "Qusmuryn, Kazakhstan",
        "coordinate": {
            "longitude": "64.6000",
            "latitude": "52.4580"
        }
    },
    {
        "city": "Oktyabrsk, Kazakhstan",
        "coordinate": {
            "longitude": "57.4449",
            "latitude": "49.4731"
        }
    },
    {
        "city": "Khromtau, Kazakhstan",
        "coordinate": {
            "longitude": "58.4500",
            "latitude": "50.2699"
        }
    },
    {
        "city": "Algha, Kazakhstan",
        "coordinate": {
            "longitude": "57.3350",
            "latitude": "49.9032"
        }
    },
    {
        "city": "Embi, Kazakhstan",
        "coordinate": {
            "longitude": "58.1442",
            "latitude": "48.8268"
        }
    },
    {
        "city": "Ushtobe, Kazakhstan",
        "coordinate": {
            "longitude": "77.9700",
            "latitude": "45.2653"
        }
    },
    {
        "city": "Burylbaytal, Kazakhstan",
        "coordinate": {
            "longitude": "74.0303",
            "latitude": "44.9387"
        }
    },
    {
        "city": "Zhanibek, Kazakhstan",
        "coordinate": {
            "longitude": "46.8772",
            "latitude": "49.4276"
        }
    },
    {
        "city": "Esil, Kazakhstan",
        "coordinate": {
            "longitude": "66.3775",
            "latitude": "51.9570"
        }
    },
    {
        "city": "Derzhavinsk, Kazakhstan",
        "coordinate": {
            "longitude": "66.3075",
            "latitude": "51.1021"
        }
    },
    {
        "city": "Saryshaghan, Kazakhstan",
        "coordinate": {
            "longitude": "73.6191",
            "latitude": "46.1195"
        }
    },
    {
        "city": "Turgay, Kazakhstan",
        "coordinate": {
            "longitude": "63.4990",
            "latitude": "49.6260"
        }
    },
    {
        "city": "Sarqan, Kazakhstan",
        "coordinate": {
            "longitude": "79.9149",
            "latitude": "45.4203"
        }
    },
    {
        "city": "Arqalyq, Kazakhstan",
        "coordinate": {
            "longitude": "66.8976",
            "latitude": "50.2418"
        }
    },
    {
        "city": "Shalqar, Kazakhstan",
        "coordinate": {
            "longitude": "59.6141",
            "latitude": "47.8363"
        }
    },
    {
        "city": "Shieli, Kazakhstan",
        "coordinate": {
            "longitude": "66.7500",
            "latitude": "44.1670"
        }
    },
    {
        "city": "Bayghanin, Kazakhstan",
        "coordinate": {
            "longitude": "55.8740",
            "latitude": "48.6917"
        }
    },
    {
        "city": "Zhezqazghan, Kazakhstan",
        "coordinate": {
            "longitude": "67.7700",
            "latitude": "47.7800"
        }
    },
    {
        "city": "Mangyshlak, Kazakhstan",
        "coordinate": {
            "longitude": "51.1417",
            "latitude": "43.6905"
        }
    },
    {
        "city": "Zhosaly, Kazakhstan",
        "coordinate": {
            "longitude": "64.0780",
            "latitude": "45.4877"
        }
    },
    {
        "city": "Beyneu, Kazakhstan",
        "coordinate": {
            "longitude": "55.1000",
            "latitude": "45.1834"
        }
    },
    {
        "city": "Qazaly, Kazakhstan",
        "coordinate": {
            "longitude": "62.1075",
            "latitude": "45.7628"
        }
    },
    {
        "city": "Aral, Kazakhstan",
        "coordinate": {
            "longitude": "61.6666",
            "latitude": "46.8000"
        }
    },
    {
        "city": "Ayakoz, Kazakhstan",
        "coordinate": {
            "longitude": "80.4297",
            "latitude": "47.9647"
        }
    },
    {
        "city": "Urzhar, Kazakhstan",
        "coordinate": {
            "longitude": "81.6048",
            "latitude": "47.1002"
        }
    },
    {
        "city": "Qapshaghay, Kazakhstan",
        "coordinate": {
            "longitude": "77.0687",
            "latitude": "43.8844"
        }
    },
    {
        "city": "Esik, Kazakhstan",
        "coordinate": {
            "longitude": "77.4438",
            "latitude": "43.3691"
        }
    },
    {
        "city": "Turkistan, Kazakhstan",
        "coordinate": {
            "longitude": "68.2549",
            "latitude": "43.3016"
        }
    },
    {
        "city": "Qaratau, Kazakhstan",
        "coordinate": {
            "longitude": "70.4600",
            "latitude": "43.1854"
        }
    },
    {
        "city": "Sharbaqty, Kazakhstan",
        "coordinate": {
            "longitude": "78.1499",
            "latitude": "52.4999"
        }
    },
    {
        "city": "Oostanay, Kazakhstan",
        "coordinate": {
            "longitude": "63.6283",
            "latitude": "53.2209"
        }
    },
    {
        "city": "Kachiry, Kazakhstan",
        "coordinate": {
            "longitude": "76.0900",
            "latitude": "53.0804"
        }
    },
    {
        "city": "Kishkenekol, Kazakhstan",
        "coordinate": {
            "longitude": "72.3414",
            "latitude": "53.6368"
        }
    },
    {
        "city": "Bulaevo, Kazakhstan",
        "coordinate": {
            "longitude": "70.4400",
            "latitude": "54.9053"
        }
    },
    {
        "city": "Shonzhy, Kazakhstan",
        "coordinate": {
            "longitude": "79.4703",
            "latitude": "43.5421"
        }
    },
    {
        "city": "Qyzylorda, Kazakhstan",
        "coordinate": {
            "longitude": "65.4650",
            "latitude": "44.8000"
        }
    },
    {
        "city": "Qaraghandy, Kazakhstan",
        "coordinate": {
            "longitude": "73.1150",
            "latitude": "49.8850"
        }
    },
    {
        "city": "Ertis, Kazakhstan",
        "coordinate": {
            "longitude": "75.4499",
            "latitude": "53.3453"
        }
    },
    {
        "city": "Tayynsha, Kazakhstan",
        "coordinate": {
            "longitude": "69.7638",
            "latitude": "53.8481"
        }
    },
    {
        "city": "Qulan, Kazakhstan",
        "coordinate": {
            "longitude": "72.7050",
            "latitude": "42.9204"
        }
    },
    {
        "city": "Shu, Kazakhstan",
        "coordinate": {
            "longitude": "73.7448",
            "latitude": "43.5953"
        }
    },
    {
        "city": "Kentau, Kazakhstan",
        "coordinate": {
            "longitude": "68.5199",
            "latitude": "43.5165"
        }
    },
    {
        "city": "Oskemen, Kazakhstan",
        "coordinate": {
            "longitude": "82.6149",
            "latitude": "49.9900"
        }
    },
    {
        "city": "Aqtau, Kazakhstan",
        "coordinate": {
            "longitude": "51.2365",
            "latitude": "43.6232"
        }
    },
    {
        "city": "Taldyqorghan, Kazakhstan",
        "coordinate": {
            "longitude": "78.4000",
            "latitude": "45.0000"
        }
    },
    {
        "city": "Astana, Kazakhstan",
        "coordinate": {
            "longitude": "71.4278",
            "latitude": "51.1811"
        }
    },
    {
        "city": "Aqtobe, Kazakhstan",
        "coordinate": {
            "longitude": "57.1700",
            "latitude": "50.2800"
        }
    },
    {
        "city": "Kokshetau, Kazakhstan",
        "coordinate": {
            "longitude": "69.4200",
            "latitude": "53.3000"
        }
    },
    {
        "city": "Petropavlovsk, Kazakhstan",
        "coordinate": {
            "longitude": "69.2200",
            "latitude": "54.8800"
        }
    },
    {
        "city": "Pavlodar, Kazakhstan",
        "coordinate": {
            "longitude": "76.9500",
            "latitude": "52.3000"
        }
    },
    {
        "city": "Otar, Kazakhstan",
        "coordinate": {
            "longitude": "75.2139",
            "latitude": "43.5346"
        }
    },
    {
        "city": "Almaty, Kazakhstan",
        "coordinate": {
            "longitude": "76.9150",
            "latitude": "43.3250"
        }
    },
    {
        "city": "Bestobe, Kazakhstan",
        "coordinate": {
            "longitude": "73.0997",
            "latitude": "52.4997"
        }
    },
    {
        "city": "Arys, Kazakhstan",
        "coordinate": {
            "longitude": "68.8048",
            "latitude": "42.4369"
        }
    },
    {
        "city": "Lenger, Kazakhstan",
        "coordinate": {
            "longitude": "69.8799",
            "latitude": "42.1899"
        }
    },
    {
        "city": "Aqsu, Kazakhstan",
        "coordinate": {
            "longitude": "71.9597",
            "latitude": "52.4502"
        }
    },
    {
        "city": "Temirtau, Kazakhstan",
        "coordinate": {
            "longitude": "72.9650",
            "latitude": "50.0650"
        }
    },
    {
        "city": "Makinsk, Kazakhstan",
        "coordinate": {
            "longitude": "70.4100",
            "latitude": "52.6404"
        }
    },
    {
        "city": "Osakarovka, Kazakhstan",
        "coordinate": {
            "longitude": "72.5699",
            "latitude": "50.5799"
        }
    },
    {
        "city": "Qarqaraly, Kazakhstan",
        "coordinate": {
            "longitude": "75.4649",
            "latitude": "49.4249"
        }
    },
    {
        "city": "Ekibastuz, Kazakhstan",
        "coordinate": {
            "longitude": "75.3199",
            "latitude": "51.7300"
        }
    },
    {
        "city": "Zyryanovsk, Kazakhstan",
        "coordinate": {
            "longitude": "84.2548",
            "latitude": "49.7453"
        }
    },
    {
        "city": "Komsomolets, Kazakhstan",
        "coordinate": {
            "longitude": "62.0502",
            "latitude": "53.7506"
        }
    },
    {
        "city": "Baykonur, Kazakhstan",
        "coordinate": {
            "longitude": "63.2413",
            "latitude": "45.6914"
        }
    },
    {
        "city": "Erymentau, Kazakhstan",
        "coordinate": {
            "longitude": "73.1049",
            "latitude": "51.6303"
        }
    },
    {
        "city": "Qarazhal, Kazakhstan",
        "coordinate": {
            "longitude": "70.7999",
            "latitude": "48.0253"
        }
    },
    {
        "city": "Tobol, Kazakhstan",
        "coordinate": {
            "longitude": "62.5749",
            "latitude": "52.6980"
        }
    },
    {
        "city": "Shar, Kazakhstan",
        "coordinate": {
            "longitude": "81.0549",
            "latitude": "49.6003"
        }
    },
    {
        "city": "Semey, Kazakhstan",
        "coordinate": {
            "longitude": "80.2750",
            "latitude": "50.4350"
        }
    },
    {
        "city": "Boralday, Kazakhstan",
        "coordinate": {
            "longitude": "76.8288",
            "latitude": "43.3341"
        }
    },
    {
        "city": "Zhetiqara, Kazakhstan",
        "coordinate": {
            "longitude": "61.2399",
            "latitude": "52.1930"
        }
    },
    {
        "city": "Aqadyr, Kazakhstan",
        "coordinate": {
            "longitude": "72.8599",
            "latitude": "48.2749"
        }
    },
    {
        "city": "Zharkent, Kazakhstan",
        "coordinate": {
            "longitude": "79.9801",
            "latitude": "44.1616"
        }
    },
    {
        "city": "Qulsary, Kazakhstan",
        "coordinate": {
            "longitude": "54.0165",
            "latitude": "46.9833"
        }
    },
    {
        "city": "Balyqshy, Kazakhstan",
        "coordinate": {
            "longitude": "51.8666",
            "latitude": "47.0666"
        }
    },
    {
        "city": "Atyrau, Kazakhstan",
        "coordinate": {
            "longitude": "51.9200",
            "latitude": "47.1127"
        }
    },
    {
        "city": "Xiangkhoang, Laos",
        "coordinate": {
            "longitude": "103.3666",
            "latitude": "19.3337"
        }
    },
    {
        "city": "Muang Phônsavan, Laos",
        "coordinate": {
            "longitude": "103.2167",
            "latitude": "19.4500"
        }
    },
    {
        "city": "Vientiane, Laos",
        "coordinate": {
            "longitude": "102.6000",
            "latitude": "17.9667"
        }
    },
    {
        "city": "Ban Houayxay, Laos",
        "coordinate": {
            "longitude": "100.4128",
            "latitude": "20.2775"
        }
    },
    {
        "city": "Muang Phôn-Hông, Laos",
        "coordinate": {
            "longitude": "102.4142",
            "latitude": "18.4957"
        }
    },
    {
        "city": "Louang Namtha, Laos",
        "coordinate": {
            "longitude": "101.4167",
            "latitude": "20.9500"
        }
    },
    {
        "city": "Phongsali, Laos",
        "coordinate": {
            "longitude": "102.1000",
            "latitude": "21.6833"
        }
    },
    {
        "city": "Thakhek, Laos",
        "coordinate": {
            "longitude": "104.8361",
            "latitude": "17.4112"
        }
    },
    {
        "city": "Muang Pakxan, Laos",
        "coordinate": {
            "longitude": "103.6586",
            "latitude": "18.3826"
        }
    },
    {
        "city": "Louangphrabang, Laos",
        "coordinate": {
            "longitude": "102.1416",
            "latitude": "19.8845"
        }
    },
    {
        "city": "Xaignabouri, Laos",
        "coordinate": {
            "longitude": "101.7501",
            "latitude": "19.2505"
        }
    },
    {
        "city": "Savannakhet, Laos",
        "coordinate": {
            "longitude": "104.7730",
            "latitude": "16.5376"
        }
    },
    {
        "city": "Lamam, Laos",
        "coordinate": {
            "longitude": "106.6946",
            "latitude": "15.4171"
        }
    },
    {
        "city": "Pakxe, Laos",
        "coordinate": {
            "longitude": "105.8183",
            "latitude": "15.1221"
        }
    },
    {
        "city": "Attapu, Laos",
        "coordinate": {
            "longitude": "106.8390",
            "latitude": "14.8080"
        }
    },
    {
        "city": "Xam Nua, Laos",
        "coordinate": {
            "longitude": "104.0333",
            "latitude": "20.4167"
        }
    },
    {
        "city": "Muang Xai, Laos",
        "coordinate": {
            "longitude": "101.9847",
            "latitude": "20.6923"
        }
    },
    {
        "city": "Saravan, Laos",
        "coordinate": {
            "longitude": "106.4270",
            "latitude": "15.7160"
        }
    },
    {
        "city": "Champasak, Laos",
        "coordinate": {
            "longitude": "105.8667",
            "latitude": "14.8833"
        }
    },
    {
        "city": "Beirut, Lebanon",
        "coordinate": {
            "longitude": "35.5097",
            "latitude": "33.8720"
        }
    },
    {
        "city": "Zahlé, Lebanon",
        "coordinate": {
            "longitude": "35.9042",
            "latitude": "33.8501"
        }
    },
    {
        "city": "Baalbek, Lebanon",
        "coordinate": {
            "longitude": "36.2181",
            "latitude": "34.0058"
        }
    },
    {
        "city": "B'abda, Lebanon",
        "coordinate": {
            "longitude": "35.5333",
            "latitude": "33.8333"
        }
    },
    {
        "city": "Halba, Lebanon",
        "coordinate": {
            "longitude": "36.0797",
            "latitude": "34.5428"
        }
    },
    {
        "city": "Saida, Lebanon",
        "coordinate": {
            "longitude": "35.3688",
            "latitude": "33.5630"
        }
    },
    {
        "city": "Nabatiye et Tahta, Lebanon",
        "coordinate": {
            "longitude": "35.4500",
            "latitude": "33.3833"
        }
    },
    {
        "city": "Trablous, Lebanon",
        "coordinate": {
            "longitude": "35.8700",
            "latitude": "34.4200"
        }
    },
    {
        "city": "Castries, Saint Lucia",
        "coordinate": {
            "longitude": "-61.0000",
            "latitude": "14.0020"
        }
    },
    {
        "city": "Gamprin, Liechtenstein",
        "coordinate": {
            "longitude": "9.5113",
            "latitude": "47.2197"
        }
    },
    {
        "city": "Triesenberg, Liechtenstein",
        "coordinate": {
            "longitude": "9.5444",
            "latitude": "47.1182"
        }
    },
    {
        "city": "Schaan, Liechtenstein",
        "coordinate": {
            "longitude": "9.5096",
            "latitude": "47.1661"
        }
    },
    {
        "city": "Ruggell, Liechtenstein",
        "coordinate": {
            "longitude": "9.5247",
            "latitude": "47.2408"
        }
    },
    {
        "city": "Mauren, Liechtenstein",
        "coordinate": {
            "longitude": "9.5426",
            "latitude": "47.2205"
        }
    },
    {
        "city": "Eschen, Liechtenstein",
        "coordinate": {
            "longitude": "9.5216",
            "latitude": "47.2109"
        }
    },
    {
        "city": "Triesen, Liechtenstein",
        "coordinate": {
            "longitude": "9.5240",
            "latitude": "47.1101"
        }
    },
    {
        "city": "Balzers, Liechtenstein",
        "coordinate": {
            "longitude": "9.5025",
            "latitude": "47.0667"
        }
    },
    {
        "city": "Vaduz, Liechtenstein",
        "coordinate": {
            "longitude": "9.5167",
            "latitude": "47.1337"
        }
    },
    {
        "city": "Planken, Liechtenstein",
        "coordinate": {
            "longitude": "9.5436",
            "latitude": "47.1844"
        }
    },
    {
        "city": "Schellenberg, Liechtenstein",
        "coordinate": {
            "longitude": "9.5463",
            "latitude": "47.2325"
        }
    },
    {
        "city": "Colombo, Sri Lanka",
        "coordinate": {
            "longitude": "79.8578",
            "latitude": "6.9320"
        }
    },
    {
        "city": "Ratnapura, Sri Lanka",
        "coordinate": {
            "longitude": "80.3860",
            "latitude": "6.6930"
        }
    },
    {
        "city": "Matara, Sri Lanka",
        "coordinate": {
            "longitude": "80.5428",
            "latitude": "5.9490"
        }
    },
    {
        "city": "Sri Jawewardenepura Kotte, Sri Lanka",
        "coordinate": {
            "longitude": "79.9500",
            "latitude": "6.9000"
        }
    },
    {
        "city": "Moratuwa, Sri Lanka",
        "coordinate": {
            "longitude": "79.8800",
            "latitude": "6.7804"
        }
    },
    {
        "city": "Anuradhapura, Sri Lanka",
        "coordinate": {
            "longitude": "80.3833",
            "latitude": "8.3500"
        }
    },
    {
        "city": "Galle, Sri Lanka",
        "coordinate": {
            "longitude": "80.2400",
            "latitude": "6.0300"
        }
    },
    {
        "city": "Puttalan, Sri Lanka",
        "coordinate": {
            "longitude": "79.8260",
            "latitude": "8.0330"
        }
    },
    {
        "city": "Kandy, Sri Lanka",
        "coordinate": {
            "longitude": "80.6700",
            "latitude": "7.2800"
        }
    },
    {
        "city": "Badulla, Sri Lanka",
        "coordinate": {
            "longitude": "81.0499",
            "latitude": "6.9837"
        }
    },
    {
        "city": "Trincomalee, Sri Lanka",
        "coordinate": {
            "longitude": "81.2330",
            "latitude": "8.5690"
        }
    },
    {
        "city": "Kilinochchi, Sri Lanka",
        "coordinate": {
            "longitude": "80.3999",
            "latitude": "9.4004"
        }
    },
    {
        "city": "Batticaloa, Sri Lanka",
        "coordinate": {
            "longitude": "81.7000",
            "latitude": "7.7170"
        }
    },
    {
        "city": "Jaffna, Sri Lanka",
        "coordinate": {
            "longitude": "80.0050",
            "latitude": "9.6750"
        }
    },
    {
        "city": "Bopolu, Liberia",
        "coordinate": {
            "longitude": "-10.4875",
            "latitude": "7.0667"
        }
    },
    {
        "city": "Voinjama, Liberia",
        "coordinate": {
            "longitude": "-9.7500",
            "latitude": "8.4167"
        }
    },
    {
        "city": "Robertsport, Liberia",
        "coordinate": {
            "longitude": "-11.3686",
            "latitude": "6.7533"
        }
    },
    {
        "city": "Buchanan, Liberia",
        "coordinate": {
            "longitude": "-10.0525",
            "latitude": "5.9161"
        }
    },
    {
        "city": "Monrovia, Liberia",
        "coordinate": {
            "longitude": "-10.8048",
            "latitude": "6.3106"
        }
    },
    {
        "city": "Tubmanburg, Liberia",
        "coordinate": {
            "longitude": "-10.8211",
            "latitude": "6.8706"
        }
    },
    {
        "city": "Buchanan, Liberia",
        "coordinate": {
            "longitude": "-10.0447",
            "latitude": "5.8811"
        }
    },
    {
        "city": "Zwedru, Liberia",
        "coordinate": {
            "longitude": "-8.1300",
            "latitude": "6.0704"
        }
    },
    {
        "city": "Barclayville, Liberia",
        "coordinate": {
            "longitude": "-8.1667",
            "latitude": "4.8000"
        }
    },
    {
        "city": "Rivercess, Liberia",
        "coordinate": {
            "longitude": "-9.5780",
            "latitude": "5.4650"
        }
    },
    {
        "city": "Fish Town, Liberia",
        "coordinate": {
            "longitude": "-7.8758",
            "latitude": "5.1974"
        }
    },
    {
        "city": "Gbarnga, Liberia",
        "coordinate": {
            "longitude": "-9.4900",
            "latitude": "7.0104"
        }
    },
    {
        "city": "Kakata, Liberia",
        "coordinate": {
            "longitude": "-10.3490",
            "latitude": "6.5260"
        }
    },
    {
        "city": "Sanniquellie, Liberia",
        "coordinate": {
            "longitude": "-8.6850",
            "latitude": "7.3710"
        }
    },
    {
        "city": "Greenville, Liberia",
        "coordinate": {
            "longitude": "-9.0388",
            "latitude": "5.0111"
        }
    },
    {
        "city": "Bensonville, Liberia",
        "coordinate": {
            "longitude": "-10.6000",
            "latitude": "6.4333"
        }
    },
    {
        "city": "Harper, Liberia",
        "coordinate": {
            "longitude": "-7.7170",
            "latitude": "4.3754"
        }
    },
    {
        "city": "Maseru, Lesotho",
        "coordinate": {
            "longitude": "27.4833",
            "latitude": "-29.3167"
        }
    },
    {
        "city": "Mokhotlong, Lesotho",
        "coordinate": {
            "longitude": "29.0780",
            "latitude": "-29.2910"
        }
    },
    {
        "city": "Thaba-Tseka, Lesotho",
        "coordinate": {
            "longitude": "28.6084",
            "latitude": "-29.5220"
        }
    },
    {
        "city": "Moyeni, Lesotho",
        "coordinate": {
            "longitude": "27.7160",
            "latitude": "-30.4110"
        }
    },
    {
        "city": "Qacha’s Nek, Lesotho",
        "coordinate": {
            "longitude": "28.6894",
            "latitude": "-30.1154"
        }
    },
    {
        "city": "Mafetang, Lesotho",
        "coordinate": {
            "longitude": "27.2500",
            "latitude": "-29.8166"
        }
    },
    {
        "city": "Hlotse, Lesotho",
        "coordinate": {
            "longitude": "28.0560",
            "latitude": "-28.8780"
        }
    },
    {
        "city": "Teyateyaneng, Lesotho",
        "coordinate": {
            "longitude": "27.7530",
            "latitude": "-29.1530"
        }
    },
    {
        "city": "Mohales Hoek, Lesotho",
        "coordinate": {
            "longitude": "27.4800",
            "latitude": "-30.1590"
        }
    },
    {
        "city": "Butha-Buthe, Lesotho",
        "coordinate": {
            "longitude": "28.2500",
            "latitude": "-28.7500"
        }
    },
    {
        "city": "Klaipėda, Lithuania",
        "coordinate": {
            "longitude": "21.1199",
            "latitude": "55.7204"
        }
    },
    {
        "city": "Palanga, Lithuania",
        "coordinate": {
            "longitude": "21.0710",
            "latitude": "55.9203"
        }
    },
    {
        "city": "Nida, Lithuania",
        "coordinate": {
            "longitude": "20.9965",
            "latitude": "55.3086"
        }
    },
    {
        "city": "Kretinga, Lithuania",
        "coordinate": {
            "longitude": "21.2445",
            "latitude": "55.8888"
        }
    },
    {
        "city": "Tauragė, Lithuania",
        "coordinate": {
            "longitude": "22.2897",
            "latitude": "55.2522"
        }
    },
    {
        "city": "Šilutė, Lithuania",
        "coordinate": {
            "longitude": "21.4733",
            "latitude": "55.3453"
        }
    },
    {
        "city": "Rietavas, Lithuania",
        "coordinate": {
            "longitude": "21.9234",
            "latitude": "55.7271"
        }
    },
    {
        "city": "Plungė, Lithuania",
        "coordinate": {
            "longitude": "21.8456",
            "latitude": "55.9077"
        }
    },
    {
        "city": "Šilalė, Lithuania",
        "coordinate": {
            "longitude": "22.1869",
            "latitude": "55.4898"
        }
    },
    {
        "city": "Visaginas, Lithuania",
        "coordinate": {
            "longitude": "26.4398",
            "latitude": "55.5968"
        }
    },
    {
        "city": "Zarasai, Lithuania",
        "coordinate": {
            "longitude": "26.2512",
            "latitude": "55.7322"
        }
    },
    {
        "city": "Ignalina, Lithuania",
        "coordinate": {
            "longitude": "26.1605",
            "latitude": "55.3406"
        }
    },
    {
        "city": "Utena, Lithuania",
        "coordinate": {
            "longitude": "25.5992",
            "latitude": "55.4976"
        }
    },
    {
        "city": "Švenčionys, Lithuania",
        "coordinate": {
            "longitude": "26.1595",
            "latitude": "55.1330"
        }
    },
    {
        "city": "Rokiškis, Lithuania",
        "coordinate": {
            "longitude": "25.5947",
            "latitude": "55.9587"
        }
    },
    {
        "city": "Molėtai, Lithuania",
        "coordinate": {
            "longitude": "25.4169",
            "latitude": "55.2247"
        }
    },
    {
        "city": "Šalčininkai, Lithuania",
        "coordinate": {
            "longitude": "25.3868",
            "latitude": "54.3086"
        }
    },
    {
        "city": "Vilnius, Lithuania",
        "coordinate": {
            "longitude": "25.3166",
            "latitude": "54.6834"
        }
    },
    {
        "city": "Kupiškis, Lithuania",
        "coordinate": {
            "longitude": "24.9803",
            "latitude": "55.8401"
        }
    },
    {
        "city": "Trakai, Lithuania",
        "coordinate": {
            "longitude": "24.9360",
            "latitude": "54.6399"
        }
    },
    {
        "city": "Biržai, Lithuania",
        "coordinate": {
            "longitude": "24.7521",
            "latitude": "56.1986"
        }
    },
    {
        "city": "Anykščiai, Lithuania",
        "coordinate": {
            "longitude": "25.1066",
            "latitude": "55.5246"
        }
    },
    {
        "city": "Telšiai, Lithuania",
        "coordinate": {
            "longitude": "22.2343",
            "latitude": "55.9831"
        }
    },
    {
        "city": "Kelmė, Lithuania",
        "coordinate": {
            "longitude": "22.9349",
            "latitude": "55.6301"
        }
    },
    {
        "city": "Marijampolė, Lithuania",
        "coordinate": {
            "longitude": "23.3541",
            "latitude": "54.5599"
        }
    },
    {
        "city": "Lazdijai, Lithuania",
        "coordinate": {
            "longitude": "23.5147",
            "latitude": "54.2333"
        }
    },
    {
        "city": "Šakiai, Lithuania",
        "coordinate": {
            "longitude": "23.0478",
            "latitude": "54.9534"
        }
    },
    {
        "city": "Radviliškis, Lithuania",
        "coordinate": {
            "longitude": "23.5411",
            "latitude": "55.8111"
        }
    },
    {
        "city": "Šiauliai, Lithuania",
        "coordinate": {
            "longitude": "23.3250",
            "latitude": "55.9386"
        }
    },
    {
        "city": "Birštonas, Lithuania",
        "coordinate": {
            "longitude": "24.0311",
            "latitude": "54.6048"
        }
    },
    {
        "city": "Druskininkai, Lithuania",
        "coordinate": {
            "longitude": "23.9870",
            "latitude": "54.0157"
        }
    },
    {
        "city": "Kėdainiai, Lithuania",
        "coordinate": {
            "longitude": "23.9727",
            "latitude": "55.2878"
        }
    },
    {
        "city": "Alytus, Lithuania",
        "coordinate": {
            "longitude": "24.0414",
            "latitude": "54.3964"
        }
    },
    {
        "city": "Prienai, Lithuania",
        "coordinate": {
            "longitude": "23.9458",
            "latitude": "54.6360"
        }
    },
    {
        "city": "Elektrėnai, Lithuania",
        "coordinate": {
            "longitude": "24.6626",
            "latitude": "54.7863"
        }
    },
    {
        "city": "Kaunas, Lithuania",
        "coordinate": {
            "longitude": "23.8800",
            "latitude": "54.9504"
        }
    },
    {
        "city": "Jonava, Lithuania",
        "coordinate": {
            "longitude": "24.2754",
            "latitude": "55.0801"
        }
    },
    {
        "city": "Kaišiadorys, Lithuania",
        "coordinate": {
            "longitude": "24.4682",
            "latitude": "54.8653"
        }
    },
    {
        "city": "Panevežys, Lithuania",
        "coordinate": {
            "longitude": "24.3700",
            "latitude": "55.7400"
        }
    },
    {
        "city": "Joniškis, Lithuania",
        "coordinate": {
            "longitude": "23.6154",
            "latitude": "56.2394"
        }
    },
    {
        "city": "Kazlų Rūda, Lithuania",
        "coordinate": {
            "longitude": "23.4950",
            "latitude": "54.7497"
        }
    },
    {
        "city": "Vilkaviškis, Lithuania",
        "coordinate": {
            "longitude": "23.0305",
            "latitude": "54.6480"
        }
    },
    {
        "city": "Pasvalys, Lithuania",
        "coordinate": {
            "longitude": "24.3997",
            "latitude": "56.0625"
        }
    },
    {
        "city": "Pakruojis, Lithuania",
        "coordinate": {
            "longitude": "23.8551",
            "latitude": "55.9789"
        }
    },
    {
        "city": "Raseiniai, Lithuania",
        "coordinate": {
            "longitude": "23.1239",
            "latitude": "55.3797"
        }
    },
    {
        "city": "Pagėgiai, Lithuania",
        "coordinate": {
            "longitude": "21.9138",
            "latitude": "55.1379"
        }
    },
    {
        "city": "Jurbarkas, Lithuania",
        "coordinate": {
            "longitude": "22.7642",
            "latitude": "55.0756"
        }
    },
    {
        "city": "Kalvarija, Lithuania",
        "coordinate": {
            "longitude": "23.2283",
            "latitude": "54.4172"
        }
    },
    {
        "city": "Širvintos, Lithuania",
        "coordinate": {
            "longitude": "24.9545",
            "latitude": "55.0440"
        }
    },
    {
        "city": "Skuodas, Lithuania",
        "coordinate": {
            "longitude": "21.5321",
            "latitude": "56.2706"
        }
    },
    {
        "city": "Mažeikiai, Lithuania",
        "coordinate": {
            "longitude": "22.3265",
            "latitude": "56.3122"
        }
    },
    {
        "city": "Akmenė, Lithuania",
        "coordinate": {
            "longitude": "22.7500",
            "latitude": "56.2500"
        }
    },
    {
        "city": "Ukmergė, Lithuania",
        "coordinate": {
            "longitude": "24.7636",
            "latitude": "55.2494"
        }
    },
    {
        "city": "Varėna, Lithuania",
        "coordinate": {
            "longitude": "24.5754",
            "latitude": "54.2155"
        }
    },
    {
        "city": "Capellen, Luxembourg",
        "coordinate": {
            "longitude": "5.9908",
            "latitude": "49.6450"
        }
    },
    {
        "city": "Esch-sur-Alzette, Luxembourg",
        "coordinate": {
            "longitude": "5.9806",
            "latitude": "49.4958"
        }
    },
    {
        "city": "Remich, Luxembourg",
        "coordinate": {
            "longitude": "6.3669",
            "latitude": "49.5450"
        }
    },
    {
        "city": "Echternach, Luxembourg",
        "coordinate": {
            "longitude": "6.4222",
            "latitude": "49.8056"
        }
    },
    {
        "city": "Mersch, Luxembourg",
        "coordinate": {
            "longitude": "6.1061",
            "latitude": "49.7489"
        }
    },
    {
        "city": "Redange-sur-Attert, Luxembourg",
        "coordinate": {
            "longitude": "5.8908",
            "latitude": "49.7656"
        }
    },
    {
        "city": "Vianden, Luxembourg",
        "coordinate": {
            "longitude": "6.2089",
            "latitude": "49.9350"
        }
    },
    {
        "city": "Wiltz, Luxembourg",
        "coordinate": {
            "longitude": "5.9319",
            "latitude": "49.9689"
        }
    },
    {
        "city": "Clervaux, Luxembourg",
        "coordinate": {
            "longitude": "6.0314",
            "latitude": "50.0547"
        }
    },
    {
        "city": "Diekirch, Luxembourg",
        "coordinate": {
            "longitude": "6.1667",
            "latitude": "49.8833"
        }
    },
    {
        "city": "Grevenmacher, Luxembourg",
        "coordinate": {
            "longitude": "6.3333",
            "latitude": "49.7000"
        }
    },
    {
        "city": "Luxembourg, Luxembourg",
        "coordinate": {
            "longitude": "6.1300",
            "latitude": "49.6117"
        }
    },
    {
        "city": "Skrunda, Latvia",
        "coordinate": {
            "longitude": "22.0167",
            "latitude": "56.6833"
        }
    },
    {
        "city": "Daugavpils, Latvia",
        "coordinate": {
            "longitude": "26.5100",
            "latitude": "55.8800"
        }
    },
    {
        "city": "Jēkabpils, Latvia",
        "coordinate": {
            "longitude": "25.8500",
            "latitude": "56.4833"
        }
    },
    {
        "city": "Aglona, Latvia",
        "coordinate": {
            "longitude": "27.0167",
            "latitude": "56.1333"
        }
    },
    {
        "city": "Lielvārde, Latvia",
        "coordinate": {
            "longitude": "24.8050",
            "latitude": "56.7225"
        }
    },
    {
        "city": "Saldus, Latvia",
        "coordinate": {
            "longitude": "22.5000",
            "latitude": "56.6667"
        }
    },
    {
        "city": "Ozolnieki, Latvia",
        "coordinate": {
            "longitude": "23.7878",
            "latitude": "56.6864"
        }
    },
    {
        "city": "Brocēni, Latvia",
        "coordinate": {
            "longitude": "22.5333",
            "latitude": "56.7000"
        }
    },
    {
        "city": "Jelgava, Latvia",
        "coordinate": {
            "longitude": "23.7128",
            "latitude": "56.6527"
        }
    },
    {
        "city": "Pilsrundāle, Latvia",
        "coordinate": {
            "longitude": "24.0000",
            "latitude": "56.4167"
        }
    },
    {
        "city": "Dobele, Latvia",
        "coordinate": {
            "longitude": "23.2786",
            "latitude": "56.6250"
        }
    },
    {
        "city": "Iecava, Latvia",
        "coordinate": {
            "longitude": "24.2022",
            "latitude": "56.5986"
        }
    },
    {
        "city": "Jaunpils, Latvia",
        "coordinate": {
            "longitude": "23.0136",
            "latitude": "56.7325"
        }
    },
    {
        "city": "Auce, Latvia",
        "coordinate": {
            "longitude": "22.8833",
            "latitude": "56.4667"
        }
    },
    {
        "city": "Tukums, Latvia",
        "coordinate": {
            "longitude": "23.1553",
            "latitude": "56.9669"
        }
    },
    {
        "city": "Tērvete, Latvia",
        "coordinate": {
            "longitude": "23.3867",
            "latitude": "56.4781"
        }
    },
    {
        "city": "Salacgrīva, Latvia",
        "coordinate": {
            "longitude": "24.3590",
            "latitude": "57.7531"
        }
    },
    {
        "city": "Ventspils, Latvia",
        "coordinate": {
            "longitude": "21.5606",
            "latitude": "57.3899"
        }
    },
    {
        "city": "Dundaga, Latvia",
        "coordinate": {
            "longitude": "22.3504",
            "latitude": "57.5050"
        }
    },
    {
        "city": "Jaunjelgava, Latvia",
        "coordinate": {
            "longitude": "25.0832",
            "latitude": "56.6132"
        }
    },
    {
        "city": "Nereta, Latvia",
        "coordinate": {
            "longitude": "25.3077",
            "latitude": "56.2044"
        }
    },
    {
        "city": "Alsunga, Latvia",
        "coordinate": {
            "longitude": "21.5640",
            "latitude": "56.9801"
        }
    },
    {
        "city": "Kuldīga, Latvia",
        "coordinate": {
            "longitude": "21.9680",
            "latitude": "56.9690"
        }
    },
    {
        "city": "Pāvilosta, Latvia",
        "coordinate": {
            "longitude": "21.1817",
            "latitude": "56.8898"
        }
    },
    {
        "city": "Piņķi, Latvia",
        "coordinate": {
            "longitude": "23.9137",
            "latitude": "56.9419"
        }
    },
    {
        "city": "Ādaži, Latvia",
        "coordinate": {
            "longitude": "24.3371",
            "latitude": "57.0705"
        }
    },
    {
        "city": "Kandava, Latvia",
        "coordinate": {
            "longitude": "22.7724",
            "latitude": "57.0389"
        }
    },
    {
        "city": "Roja, Latvia",
        "coordinate": {
            "longitude": "22.8088",
            "latitude": "57.5015"
        }
    },
    {
        "city": "Carnikava, Latvia",
        "coordinate": {
            "longitude": "24.2842",
            "latitude": "57.1293"
        }
    },
    {
        "city": "Garkalne, Latvia",
        "coordinate": {
            "longitude": "24.4195",
            "latitude": "57.0449"
        }
    },
    {
        "city": "Saulkrasti, Latvia",
        "coordinate": {
            "longitude": "24.4189",
            "latitude": "57.2599"
        }
    },
    {
        "city": "Smārde, Latvia",
        "coordinate": {
            "longitude": "23.3387",
            "latitude": "56.9533"
        }
    },
    {
        "city": "Mērsrags, Latvia",
        "coordinate": {
            "longitude": "23.1235",
            "latitude": "57.3364"
        }
    },
    {
        "city": "Talsi, Latvia",
        "coordinate": {
            "longitude": "22.5876",
            "latitude": "57.2465"
        }
    },
    {
        "city": "Jūrmala, Latvia",
        "coordinate": {
            "longitude": "23.7233",
            "latitude": "56.9567"
        }
    },
    {
        "city": "Mārupe, Latvia",
        "coordinate": {
            "longitude": "24.0467",
            "latitude": "56.9032"
        }
    },
    {
        "city": "Ulbroka, Latvia",
        "coordinate": {
            "longitude": "24.3039",
            "latitude": "56.9363"
        }
    },
    {
        "city": "Zilupe, Latvia",
        "coordinate": {
            "longitude": "28.1218",
            "latitude": "56.3860"
        }
    },
    {
        "city": "Ludza, Latvia",
        "coordinate": {
            "longitude": "27.7189",
            "latitude": "56.5396"
        }
    },
    {
        "city": "Dagda, Latvia",
        "coordinate": {
            "longitude": "27.5328",
            "latitude": "56.0961"
        }
    },
    {
        "city": "Baltinava, Latvia",
        "coordinate": {
            "longitude": "27.6440",
            "latitude": "56.9439"
        }
    },
    {
        "city": "Cibla, Latvia",
        "coordinate": {
            "longitude": "27.8837",
            "latitude": "56.5498"
        }
    },
    {
        "city": "Kārsava, Latvia",
        "coordinate": {
            "longitude": "27.6732",
            "latitude": "56.7874"
        }
    },
    {
        "city": "Riga, Latvia",
        "coordinate": {
            "longitude": "24.1000",
            "latitude": "56.9500"
        }
    },
    {
        "city": "Krāslava, Latvia",
        "coordinate": {
            "longitude": "27.1720",
            "latitude": "55.8969"
        }
    },
    {
        "city": "Limbaži, Latvia",
        "coordinate": {
            "longitude": "24.7240",
            "latitude": "57.5130"
        }
    },
    {
        "city": "Preiļi, Latvia",
        "coordinate": {
            "longitude": "26.7248",
            "latitude": "56.2940"
        }
    },
    {
        "city": "Vecvārkava, Latvia",
        "coordinate": {
            "longitude": "26.5081",
            "latitude": "56.1984"
        }
    },
    {
        "city": "Ilūkste, Latvia",
        "coordinate": {
            "longitude": "26.2978",
            "latitude": "55.9779"
        }
    },
    {
        "city": "Nīca, Latvia",
        "coordinate": {
            "longitude": "21.0646",
            "latitude": "56.3456"
        }
    },
    {
        "city": "Bauska, Latvia",
        "coordinate": {
            "longitude": "24.1944",
            "latitude": "56.4079"
        }
    },
    {
        "city": "Viļaka, Latvia",
        "coordinate": {
            "longitude": "27.6719",
            "latitude": "57.1843"
        }
    },
    {
        "city": "Līvāni, Latvia",
        "coordinate": {
            "longitude": "26.1761",
            "latitude": "56.3567"
        }
    },
    {
        "city": "Alūksne, Latvia",
        "coordinate": {
            "longitude": "27.0466",
            "latitude": "57.4216"
        }
    },
    {
        "city": "Rēzekne, Latvia",
        "coordinate": {
            "longitude": "27.3166",
            "latitude": "56.5000"
        }
    },
    {
        "city": "Rugāji, Latvia",
        "coordinate": {
            "longitude": "27.1337",
            "latitude": "57.0033"
        }
    },
    {
        "city": "Riebiņi, Latvia",
        "coordinate": {
            "longitude": "26.7999",
            "latitude": "56.3403"
        }
    },
    {
        "city": "Viļāni, Latvia",
        "coordinate": {
            "longitude": "26.9298",
            "latitude": "56.5505"
        }
    },
    {
        "city": "Varakļāni, Latvia",
        "coordinate": {
            "longitude": "26.7547",
            "latitude": "56.6091"
        }
    },
    {
        "city": "Ape, Latvia",
        "coordinate": {
            "longitude": "26.6940",
            "latitude": "57.5394"
        }
    },
    {
        "city": "Madona, Latvia",
        "coordinate": {
            "longitude": "26.2184",
            "latitude": "56.8510"
        }
    },
    {
        "city": "Jaunpiebalga, Latvia",
        "coordinate": {
            "longitude": "26.0284",
            "latitude": "57.1775"
        }
    },
    {
        "city": "Lubāna, Latvia",
        "coordinate": {
            "longitude": "26.7161",
            "latitude": "56.9043"
        }
    },
    {
        "city": "Gulbene, Latvia",
        "coordinate": {
            "longitude": "26.7527",
            "latitude": "57.1734"
        }
    },
    {
        "city": "Balvi, Latvia",
        "coordinate": {
            "longitude": "27.2700",
            "latitude": "57.1287"
        }
    },
    {
        "city": "Aknīste, Latvia",
        "coordinate": {
            "longitude": "25.7482",
            "latitude": "56.1615"
        }
    },
    {
        "city": "Viesīte, Latvia",
        "coordinate": {
            "longitude": "25.5581",
            "latitude": "56.3465"
        }
    },
    {
        "city": "Cesvaine, Latvia",
        "coordinate": {
            "longitude": "26.3076",
            "latitude": "56.9675"
        }
    },
    {
        "city": "Ķegums, Latvia",
        "coordinate": {
            "longitude": "24.7250",
            "latitude": "56.7455"
        }
    },
    {
        "city": "Vecpiebalga, Latvia",
        "coordinate": {
            "longitude": "25.8179",
            "latitude": "57.0618"
        }
    },
    {
        "city": "Smiltene, Latvia",
        "coordinate": {
            "longitude": "25.9017",
            "latitude": "57.4242"
        }
    },
    {
        "city": "Drabeši, Latvia",
        "coordinate": {
            "longitude": "25.2803",
            "latitude": "57.2433"
        }
    },
    {
        "city": "Cēsis, Latvia",
        "coordinate": {
            "longitude": "25.2761",
            "latitude": "57.3091"
        }
    },
    {
        "city": "Ērgļi, Latvia",
        "coordinate": {
            "longitude": "25.6429",
            "latitude": "56.8988"
        }
    },
    {
        "city": "Valka, Latvia",
        "coordinate": {
            "longitude": "26.0118",
            "latitude": "57.7767"
        }
    },
    {
        "city": "Grobiņa, Latvia",
        "coordinate": {
            "longitude": "21.1747",
            "latitude": "56.5358"
        }
    },
    {
        "city": "Strenči, Latvia",
        "coordinate": {
            "longitude": "25.6919",
            "latitude": "57.6269"
        }
    },
    {
        "city": "Mūrmuiža, Latvia",
        "coordinate": {
            "longitude": "25.4917",
            "latitude": "57.4731"
        }
    },
    {
        "city": "Mazsalaca, Latvia",
        "coordinate": {
            "longitude": "25.0547",
            "latitude": "57.8619"
        }
    },
    {
        "city": "Aloja, Latvia",
        "coordinate": {
            "longitude": "24.8774",
            "latitude": "57.7672"
        }
    },
    {
        "city": "Burtnieki, Latvia",
        "coordinate": {
            "longitude": "25.2750",
            "latitude": "57.6949"
        }
    },
    {
        "city": "Koknese, Latvia",
        "coordinate": {
            "longitude": "25.4364",
            "latitude": "56.6516"
        }
    },
    {
        "city": "Aizkraukle, Latvia",
        "coordinate": {
            "longitude": "25.2636",
            "latitude": "56.6029"
        }
    },
    {
        "city": "Skrīveri, Latvia",
        "coordinate": {
            "longitude": "25.1195",
            "latitude": "56.6485"
        }
    },
    {
        "city": "Baldone, Latvia",
        "coordinate": {
            "longitude": "24.4008",
            "latitude": "56.7445"
        }
    },
    {
        "city": "Vecumnieki, Latvia",
        "coordinate": {
            "longitude": "24.5223",
            "latitude": "56.6061"
        }
    },
    {
        "city": "Sala, Latvia",
        "coordinate": {
            "longitude": "25.7618",
            "latitude": "56.5047"
        }
    },
    {
        "city": "Pļaviņas, Latvia",
        "coordinate": {
            "longitude": "25.7194",
            "latitude": "56.6177"
        }
    },
    {
        "city": "Liepaga, Latvia",
        "coordinate": {
            "longitude": "21.0100",
            "latitude": "56.5100"
        }
    },
    {
        "city": "Rūjiena, Latvia",
        "coordinate": {
            "longitude": "25.3342",
            "latitude": "57.8961"
        }
    },
    {
        "city": "Naukšēni, Latvia",
        "coordinate": {
            "longitude": "25.4580",
            "latitude": "57.8842"
        }
    },
    {
        "city": "Lieģi, Latvia",
        "coordinate": {
            "longitude": "21.3338",
            "latitude": "56.5797"
        }
    },
    {
        "city": "Rauna, Latvia",
        "coordinate": {
            "longitude": "25.6085",
            "latitude": "57.3337"
        }
    },
    {
        "city": "Aizpute, Latvia",
        "coordinate": {
            "longitude": "21.6016",
            "latitude": "56.7211"
        }
    },
    {
        "city": "Kocēni, Latvia",
        "coordinate": {
            "longitude": "25.3404",
            "latitude": "57.5198"
        }
    },
    {
        "city": "Valmiera, Latvia",
        "coordinate": {
            "longitude": "25.4257",
            "latitude": "57.5387"
        }
    },
    {
        "city": "Sigulda, Latvia",
        "coordinate": {
            "longitude": "24.8595",
            "latitude": "57.1538"
        }
    },
    {
        "city": "Priekuļi, Latvia",
        "coordinate": {
            "longitude": "25.3571",
            "latitude": "57.3115"
        }
    },
    {
        "city": "Ogre, Latvia",
        "coordinate": {
            "longitude": "24.6113",
            "latitude": "56.8113"
        }
    },
    {
        "city": "Ragana, Latvia",
        "coordinate": {
            "longitude": "24.7056",
            "latitude": "57.1821"
        }
    },
    {
        "city": "Loja, Latvia",
        "coordinate": {
            "longitude": "24.6433",
            "latitude": "57.1534"
        }
    },
    {
        "city": "Ropaži, Latvia",
        "coordinate": {
            "longitude": "24.6329",
            "latitude": "56.9747"
        }
    },
    {
        "city": "Priekule, Latvia",
        "coordinate": {
            "longitude": "21.5939",
            "latitude": "56.4458"
        }
    },
    {
        "city": "Rucava, Latvia",
        "coordinate": {
            "longitude": "21.1627",
            "latitude": "56.1640"
        }
    },
    {
        "city": "Salaspils, Latvia",
        "coordinate": {
            "longitude": "24.3498",
            "latitude": "56.8610"
        }
    },
    {
        "city": "Ikšķile, Latvia",
        "coordinate": {
            "longitude": "24.4968",
            "latitude": "56.8340"
        }
    },
    {
        "city": "Inčukalns, Latvia",
        "coordinate": {
            "longitude": "24.6863",
            "latitude": "57.0987"
        }
    },
    {
        "city": "Mālpils, Latvia",
        "coordinate": {
            "longitude": "24.9578",
            "latitude": "57.0101"
        }
    },
    {
        "city": "Olaine, Latvia",
        "coordinate": {
            "longitude": "23.9358",
            "latitude": "56.7947"
        }
    },
    {
        "city": "Ķekava, Latvia",
        "coordinate": {
            "longitude": "24.2318",
            "latitude": "56.8296"
        }
    },
    {
        "city": "Līgatne, Latvia",
        "coordinate": {
            "longitude": "25.0436",
            "latitude": "57.2379"
        }
    },
    {
        "city": "Stalbe, Latvia",
        "coordinate": {
            "longitude": "25.0324",
            "latitude": "57.3708"
        }
    },
    {
        "city": "Vaiņode, Latvia",
        "coordinate": {
            "longitude": "21.8541",
            "latitude": "56.4185"
        }
    },
    {
        "city": "Tripoli, Libya",
        "coordinate": {
            "longitude": "13.1800",
            "latitude": "32.8925"
        }
    },
    {
        "city": "Gharyan, Libya",
        "coordinate": {
            "longitude": "13.0200",
            "latitude": "32.1704"
        }
    },
    {
        "city": "Surt, Libya",
        "coordinate": {
            "longitude": "16.5900",
            "latitude": "31.2100"
        }
    },
    {
        "city": "Marzuq, Libya",
        "coordinate": {
            "longitude": "13.8972",
            "latitude": "25.9044"
        }
    },
    {
        "city": "Sabha, Libya",
        "coordinate": {
            "longitude": "14.4333",
            "latitude": "27.0333"
        }
    },
    {
        "city": "Misratah, Libya",
        "coordinate": {
            "longitude": "15.1000",
            "latitude": "32.3800"
        }
    },
    {
        "city": "Al ‘Azīzīyah, Libya",
        "coordinate": {
            "longitude": "13.0175",
            "latitude": "32.5319"
        }
    },
    {
        "city": "Zuwarah, Libya",
        "coordinate": {
            "longitude": "12.0791",
            "latitude": "32.9344"
        }
    },
    {
        "city": "Nalut, Libya",
        "coordinate": {
            "longitude": "10.9700",
            "latitude": "31.8804"
        }
    },
    {
        "city": "Hun, Libya",
        "coordinate": {
            "longitude": "15.9333",
            "latitude": "29.1167"
        }
    },
    {
        "city": "Darnah, Libya",
        "coordinate": {
            "longitude": "22.6391",
            "latitude": "32.7648"
        }
    },
    {
        "city": "Al Bayda, Libya",
        "coordinate": {
            "longitude": "21.6200",
            "latitude": "32.7604"
        }
    },
    {
        "city": "Az Zawiyah, Libya",
        "coordinate": {
            "longitude": "12.7200",
            "latitude": "32.7604"
        }
    },
    {
        "city": "Tajarhi, Libya",
        "coordinate": {
            "longitude": "14.4708",
            "latitude": "24.3704"
        }
    },
    {
        "city": "Al Jaghbub, Libya",
        "coordinate": {
            "longitude": "24.5166",
            "latitude": "29.7504"
        }
    },
    {
        "city": "Awjilah, Libya",
        "coordinate": {
            "longitude": "21.2869",
            "latitude": "29.1080"
        }
    },
    {
        "city": "Al Khums, Libya",
        "coordinate": {
            "longitude": "14.2600",
            "latitude": "32.6604"
        }
    },
    {
        "city": "Ajdabiya, Libya",
        "coordinate": {
            "longitude": "20.2200",
            "latitude": "30.7700"
        }
    },
    {
        "city": "Al Kufrah, Libya",
        "coordinate": {
            "longitude": "23.2696",
            "latitude": "24.1667"
        }
    },
    {
        "city": "Al Jawf, Libya",
        "coordinate": {
            "longitude": "23.2900",
            "latitude": "24.2000"
        }
    },
    {
        "city": "As Sidr, Libya",
        "coordinate": {
            "longitude": "18.2666",
            "latitude": "30.6704"
        }
    },
    {
        "city": "Umm al Abid, Libya",
        "coordinate": {
            "longitude": "15.0333",
            "latitude": "27.5170"
        }
    },
    {
        "city": "Banghazi, Libya",
        "coordinate": {
            "longitude": "20.0667",
            "latitude": "32.1167"
        }
    },
    {
        "city": "Dirj, Libya",
        "coordinate": {
            "longitude": "10.4567",
            "latitude": "30.1679"
        }
    },
    {
        "city": "Mizdah, Libya",
        "coordinate": {
            "longitude": "12.9833",
            "latitude": "31.4337"
        }
    },
    {
        "city": "Ghadamis, Libya",
        "coordinate": {
            "longitude": "9.5000",
            "latitude": "30.1333"
        }
    },
    {
        "city": "Qaminis, Libya",
        "coordinate": {
            "longitude": "20.0155",
            "latitude": "31.6606"
        }
    },
    {
        "city": "Awbārī, Libya",
        "coordinate": {
            "longitude": "12.7751",
            "latitude": "26.5903"
        }
    },
    {
        "city": "Ghat, Libya",
        "coordinate": {
            "longitude": "10.1728",
            "latitude": "24.9647"
        }
    },
    {
        "city": "Bani Walid, Libya",
        "coordinate": {
            "longitude": "13.9900",
            "latitude": "31.7704"
        }
    },
    {
        "city": "Zillah, Libya",
        "coordinate": {
            "longitude": "17.5834",
            "latitude": "28.5504"
        }
    },
    {
        "city": "Tmassah, Libya",
        "coordinate": {
            "longitude": "15.8000",
            "latitude": "26.3666"
        }
    },
    {
        "city": "Idrī, Libya",
        "coordinate": {
            "longitude": "13.0517",
            "latitude": "27.4471"
        }
    },
    {
        "city": "El Agheila, Libya",
        "coordinate": {
            "longitude": "19.2000",
            "latitude": "30.2570"
        }
    },
    {
        "city": "Birak, Libya",
        "coordinate": {
            "longitude": "14.2834",
            "latitude": "27.5333"
        }
    },
    {
        "city": "Maradah, Libya",
        "coordinate": {
            "longitude": "19.2166",
            "latitude": "29.2337"
        }
    },
    {
        "city": "Shahhat, Libya",
        "coordinate": {
            "longitude": "21.8622",
            "latitude": "32.8281"
        }
    },
    {
        "city": "Al Marj, Libya",
        "coordinate": {
            "longitude": "20.8300",
            "latitude": "32.5005"
        }
    },
    {
        "city": "Tubruq, Libya",
        "coordinate": {
            "longitude": "23.9600",
            "latitude": "32.0800"
        }
    },
    {
        "city": "Kenitra, Morocco",
        "coordinate": {
            "longitude": "-6.5800",
            "latitude": "34.2704"
        }
    },
    {
        "city": "Goulimine, Morocco",
        "coordinate": {
            "longitude": "-10.0700",
            "latitude": "28.9800"
        }
    },
    {
        "city": "Fez, Morocco",
        "coordinate": {
            "longitude": "-5.0004",
            "latitude": "34.0546"
        }
    },
    {
        "city": "Casablanca, Morocco",
        "coordinate": {
            "longitude": "-7.6164",
            "latitude": "33.6000"
        }
    },
    {
        "city": "Agadir, Morocco",
        "coordinate": {
            "longitude": "-9.6200",
            "latitude": "30.4400"
        }
    },
    {
        "city": "Béni Mellal, Morocco",
        "coordinate": {
            "longitude": "-6.3498",
            "latitude": "32.3373"
        }
    },
    {
        "city": "Tangier, Morocco",
        "coordinate": {
            "longitude": "-5.8327",
            "latitude": "35.7473"
        }
    },
    {
        "city": "Settat, Morocco",
        "coordinate": {
            "longitude": "-7.6200",
            "latitude": "33.0104"
        }
    },
    {
        "city": "Oujda, Morocco",
        "coordinate": {
            "longitude": "-1.9100",
            "latitude": "34.6900"
        }
    },
    {
        "city": "Meknes, Morocco",
        "coordinate": {
            "longitude": "-5.5600",
            "latitude": "33.9004"
        }
    },
    {
        "city": "Rabat, Morocco",
        "coordinate": {
            "longitude": "-6.8361",
            "latitude": "34.0253"
        }
    },
    {
        "city": "Marrakesh, Morocco",
        "coordinate": {
            "longitude": "-8.0000",
            "latitude": "31.6300"
        }
    },
    {
        "city": "El Jadida, Morocco",
        "coordinate": {
            "longitude": "-8.5100",
            "latitude": "33.2604"
        }
    },
    {
        "city": "Er Rachidia, Morocco",
        "coordinate": {
            "longitude": "-4.4500",
            "latitude": "31.9404"
        }
    },
    {
        "city": "Tan Tan, Morocco",
        "coordinate": {
            "longitude": "-11.1000",
            "latitude": "28.4304"
        }
    },
    {
        "city": "Taza, Morocco",
        "coordinate": {
            "longitude": "-4.0200",
            "latitude": "34.2204"
        }
    },
    {
        "city": "Larache, Morocco",
        "coordinate": {
            "longitude": "-6.1600",
            "latitude": "35.2004"
        }
    },
    {
        "city": "Ksar El Kebir, Morocco",
        "coordinate": {
            "longitude": "-5.9100",
            "latitude": "35.0204"
        }
    },
    {
        "city": "Safi, Morocco",
        "coordinate": {
            "longitude": "-9.2400",
            "latitude": "32.3200"
        }
    },
    {
        "city": "Tiznit, Morocco",
        "coordinate": {
            "longitude": "-9.7400",
            "latitude": "29.7104"
        }
    },
    {
        "city": "Ouezzane, Morocco",
        "coordinate": {
            "longitude": "-5.5700",
            "latitude": "34.8103"
        }
    },
    {
        "city": "Monaco, Monaco",
        "coordinate": {
            "longitude": "7.4069",
            "latitude": "43.7396"
        }
    },
    {
        "city": "Leova, Moldova",
        "coordinate": {
            "longitude": "28.2530",
            "latitude": "46.4823"
        }
    },
    {
        "city": "Rezina, Moldova",
        "coordinate": {
            "longitude": "28.9658",
            "latitude": "47.7493"
        }
    },
    {
        "city": "Căuşeni, Moldova",
        "coordinate": {
            "longitude": "29.4111",
            "latitude": "46.6367"
        }
    },
    {
        "city": "Rîşcani, Moldova",
        "coordinate": {
            "longitude": "27.5638",
            "latitude": "47.9479"
        }
    },
    {
        "city": "Sîngerei, Moldova",
        "coordinate": {
            "longitude": "28.1430",
            "latitude": "47.6363"
        }
    },
    {
        "city": "Făleşti, Moldova",
        "coordinate": {
            "longitude": "27.7126",
            "latitude": "47.5767"
        }
    },
    {
        "city": "Floreşti, Moldova",
        "coordinate": {
            "longitude": "28.2931",
            "latitude": "47.8914"
        }
    },
    {
        "city": "Şoldăneşti, Moldova",
        "coordinate": {
            "longitude": "28.7972",
            "latitude": "47.8161"
        }
    },
    {
        "city": "Ştefan Vodă, Moldova",
        "coordinate": {
            "longitude": "29.6619",
            "latitude": "46.5129"
        }
    },
    {
        "city": "Orhei, Moldova",
        "coordinate": {
            "longitude": "28.8245",
            "latitude": "47.3849"
        }
    },
    {
        "city": "Comrat, Moldova",
        "coordinate": {
            "longitude": "28.6565",
            "latitude": "46.2946"
        }
    },
    {
        "city": "Cimişlia, Moldova",
        "coordinate": {
            "longitude": "28.7644",
            "latitude": "46.5268"
        }
    },
    {
        "city": "Cantemir, Moldova",
        "coordinate": {
            "longitude": "28.2027",
            "latitude": "46.2774"
        }
    },
    {
        "city": "Basarabeasca, Moldova",
        "coordinate": {
            "longitude": "28.9636",
            "latitude": "46.3317"
        }
    },
    {
        "city": "Edineţ, Moldova",
        "coordinate": {
            "longitude": "27.3034",
            "latitude": "48.1721"
        }
    },
    {
        "city": "Ocniţa, Moldova",
        "coordinate": {
            "longitude": "27.4381",
            "latitude": "48.3827"
        }
    },
    {
        "city": "Drochia, Moldova",
        "coordinate": {
            "longitude": "27.8129",
            "latitude": "48.0355"
        }
    },
    {
        "city": "Donduşeni, Moldova",
        "coordinate": {
            "longitude": "27.6056",
            "latitude": "48.2394"
        }
    },
    {
        "city": "Briceni, Moldova",
        "coordinate": {
            "longitude": "27.0779",
            "latitude": "48.3629"
        }
    },
    {
        "city": "Ialoveni, Moldova",
        "coordinate": {
            "longitude": "28.7823",
            "latitude": "46.9435"
        }
    },
    {
        "city": "Bălți, Moldova",
        "coordinate": {
            "longitude": "27.9053",
            "latitude": "47.7591"
        }
    },
    {
        "city": "Criuleni, Moldova",
        "coordinate": {
            "longitude": "29.1593",
            "latitude": "47.2131"
        }
    },
    {
        "city": "Bender, Moldova",
        "coordinate": {
            "longitude": "29.4777",
            "latitude": "46.8316"
        }
    },
    {
        "city": "Anenii Noi, Moldova",
        "coordinate": {
            "longitude": "29.2348",
            "latitude": "46.8784"
        }
    },
    {
        "city": "Cahul, Moldova",
        "coordinate": {
            "longitude": "28.1944",
            "latitude": "45.9079"
        }
    },
    {
        "city": "Chișinău, Moldova",
        "coordinate": {
            "longitude": "28.8577",
            "latitude": "47.0050"
        }
    },
    {
        "city": "Straşeni, Moldova",
        "coordinate": {
            "longitude": "28.6077",
            "latitude": "47.1422"
        }
    },
    {
        "city": "Tiraspol, Moldova",
        "coordinate": {
            "longitude": "29.6400",
            "latitude": "46.8531"
        }
    },
    {
        "city": "Teleneşti, Moldova",
        "coordinate": {
            "longitude": "28.3654",
            "latitude": "47.5011"
        }
    },
    {
        "city": "Taraclia, Moldova",
        "coordinate": {
            "longitude": "28.6682",
            "latitude": "45.9027"
        }
    },
    {
        "city": "Dubăsari, Moldova",
        "coordinate": {
            "longitude": "29.1608",
            "latitude": "47.2631"
        }
    },
    {
        "city": "Cocieri, Moldova",
        "coordinate": {
            "longitude": "29.1101",
            "latitude": "47.3087"
        }
    },
    {
        "city": "Călăraşi, Moldova",
        "coordinate": {
            "longitude": "28.3099",
            "latitude": "47.2556"
        }
    },
    {
        "city": "Glodeni, Moldova",
        "coordinate": {
            "longitude": "27.5189",
            "latitude": "47.7751"
        }
    },
    {
        "city": "Hînceşti, Moldova",
        "coordinate": {
            "longitude": "28.5906",
            "latitude": "46.8305"
        }
    },
    {
        "city": "Nisporeni, Moldova",
        "coordinate": {
            "longitude": "28.1714",
            "latitude": "47.0816"
        }
    },
    {
        "city": "Soroca, Moldova",
        "coordinate": {
            "longitude": "28.2849",
            "latitude": "48.1566"
        }
    },
    {
        "city": "Ungheni, Moldova",
        "coordinate": {
            "longitude": "27.8005",
            "latitude": "47.2108"
        }
    },
    {
        "city": "Berane, Montenegro",
        "coordinate": {
            "longitude": "19.8733",
            "latitude": "42.8425"
        }
    },